,id,foreign,name,lat,long
0,1101,11,KABUPATEN SIMEULUE,2.46158,96.38105
1,1102,11,KABUPATEN ACEH SINGKIL,2.28411,97.79769
2,1103,11,KABUPATEN ACEH SELATAN,3.26142,97.17933
3,1104,11,KABUPATEN ACEH TENGGARA,3.48673,97.81081
4,1105,11,KABUPATEN ACEH TIMUR,4.94789,97.77651
5,1106,11,KABUPATEN ACEH TENGAH,4.63464,96.84219
6,1107,11,KABUPATEN ACEH BARAT,4.14499,96.13576
7,1108,11,KABUPATEN ACEH BESAR,5.29718,95.61156
8,1109,11,KABUPATEN PIDIE,5.3855,95.96064
9,1110,11,KABUPATEN BIREUEN,5.22198,96.71688
10,1111,11,KABUPATEN ACEH UTARA,5.05131,97.3212
11,1112,11,KABUPATEN ACEH BARAT DAYA,3.74322,96.83422
12,1113,11,KABUPATEN GAYO LUES,3.99633,97.34203
13,1114,11,KABUPATEN ACEH TAMIANG,4.33767,98.06355
14,1115,11,KABUPATEN NAGAN RAYA,4.16932,96.32479
15,1116,11,KABUPATEN ACEH JAYA,4.63544,95.58533
16,1117,11,KABUPATEN BENER MERIAH,4.72733,96.86034
17,1118,11,KABUPATEN PIDIE JAYA,5.2288,96.24542
18,1171,11,KOTA BANDA ACEH,5.54794,95.3208
19,1172,11,KOTA SABANG,5.89285,95.32343
20,1173,11,KOTA LANGSA,4.47185,97.9708
21,1174,11,KOTA LHOKSEUMAWE,5.18112,97.14196
22,1175,11,KOTA SUBULUSSALAM,2.67207,97.99863
23,1201,12,KABUPATEN NIAS,1.184,97.71678
24,1202,12,KABUPATEN MANDAILING NATAL,0.85762,99.55128
25,1203,12,KABUPATEN TAPANULI SELATAN,1.61383,99.2638
26,1204,12,KABUPATEN TAPANULI TENGAH,1.68477,98.82859
27,1205,12,KABUPATEN TAPANULI UTARA,2.01208,98.97541
28,1206,12,KABUPATEN TOBA SAMOSIR,2.33548,99.08092
29,1207,12,KABUPATEN LABUHAN BATU,2.07022,99.85752
30,1208,12,KABUPATEN ASAHAN,2.99027,99.6247
31,1209,12,KABUPATEN SIMALUNGUN,2.96527,98.86223
32,1210,12,KABUPATEN DAIRI,2.74462,98.31267
33,1211,12,KABUPATEN KARO,3.10541,98.49853
34,1212,12,KABUPATEN DELI SERDANG,3.56642,98.87351
35,1213,12,KABUPATEN LANGKAT,3.75206,98.45366
36,1214,12,KABUPATEN NIAS SELATAN,0.56867,97.81237
37,1215,12,KABUPATEN HUMBANG HASUNDUTAN,2.25305,98.75239
38,1216,12,KABUPATEN PAKPAK BHARAT,2.55477,98.32467
39,1217,12,KABUPATEN SAMOSIR,2.62443,98.71453
40,1218,12,KABUPATEN SERDANG BEDAGAI,3.49339,99.12746
41,1219,12,KABUPATEN BATU BARA,3.1695,99.42283
42,1220,12,KABUPATEN PADANG LAWAS UTARA,1.49467,99.62005
43,1221,12,KABUPATEN PADANG LAWAS,1.05567,99.77641
44,1222,12,KABUPATEN LABUHAN BATU SELATAN,1.89094,100.09064
45,1223,12,KABUPATEN LABUHAN BATU UTARA,2.56308,99.65889
46,1224,12,KABUPATEN NIAS UTARA,1.62781,98.05255
47,1225,12,KABUPATEN NIAS BARAT,0.99957,97.50747
48,1271,12,KOTA SIBOLGA,1.73722,98.78456
49,1272,12,KOTA TANJUNG BALAI,2.96571,99.80037
50,1273,12,KOTA PEMATANG SIANTAR,2.96548,99.06529
51,1274,12,KOTA TEBING TINGGI,3.32635,99.15584
52,1275,12,KOTA MEDAN,3.59567,98.67565
53,1276,12,KOTA BINJAI,3.61307,98.50635
54,1277,12,KOTA PADANGSIDIMPUAN,1.37223,99.27423
55,1278,12,KOTA GUNUNGSITOLI,1.28048,97.61443
56,1301,13,KABUPATEN KEPULAUAN MENTAWAI,-2.05399,99.58156
57,1302,13,KABUPATEN PESISIR SELATAN,-1.34743,100.57733
58,1303,13,KABUPATEN SOLOK,-0.95199,100.62313
59,1304,13,KABUPATEN SIJUNJUNG,-0.66569,100.94518
60,1305,13,KABUPATEN TANAH DATAR,-0.45633,100.59637
61,1306,13,KABUPATEN PADANG PARIAMAN,-0.62037,100.30693
62,1307,13,KABUPATEN AGAM,-0.33059,100.06728
63,1308,13,KABUPATEN LIMA PULUH KOTA,-0.15246,100.66111
64,1309,13,KABUPATEN PASAMAN,0.14054,100.16767
65,1310,13,KABUPATEN SOLOK SELATAN,-1.55631,101.24231
66,1311,13,KABUPATEN DHARMASRAYA,-0.95265,101.49455
67,1312,13,KABUPATEN PASAMAN BARAT,0.11029,99.83117
68,1371,13,KOTA PADANG,-0.94625,100.35829
69,1372,13,KOTA SOLOK,-0.78917,100.65486
70,1373,13,KOTA SAWAH LUNTO,-0.59967,100.74631
71,1374,13,KOTA PADANG PANJANG,-0.46651,100.39621
72,1375,13,KOTA BUKITTINGGI,-0.30396,100.38365
73,1376,13,KOTA PAYAKUMBUH,-0.22417,100.63241
74,1377,13,KOTA PARIAMAN,-0.62723,100.12094
75,1401,14,KABUPATEN KUANTAN SINGINGI,-0.50513,101.53884
76,1402,14,KABUPATEN INDRAGIRI HULU,-0.38902,102.54892
77,1403,14,KABUPATEN INDRAGIRI HILIR,-0.32194,103.15294
78,1404,14,KABUPATEN PELALAWAN,0.38379,101.84244
79,1405,14,KABUPATEN SIAK,0.80509,102.02092
80,1406,14,KABUPATEN KAMPAR,0.34134,101.02889
81,1407,14,KABUPATEN ROKAN HULU,0.89319,100.30318
82,1408,14,KABUPATEN BENGKALIS,1.49445,102.0916
83,1409,14,KABUPATEN ROKAN HILIR,2.1573,100.81573
84,1410,14,KABUPATEN KEPULAUAN MERANTI,0.98296,102.69906
85,1471,14,KOTA PEKANBARU,0.50486,101.44115
86,1473,14,KOTA DUMAI,1.66449,101.40149
87,1501,15,KABUPATEN KERINCI,-1.93578,101.34254
88,1502,15,KABUPATEN MERANGIN,-2.07291,102.27457
89,1503,15,KABUPATEN SAROLANGUN,-2.31262,102.75354
90,1504,15,KABUPATEN BATANG HARI,-1.6597,103.28027
91,1505,15,KABUPATEN MUARO JAMBI,-1.44812,103.51612
92,1506,15,KABUPATEN TANJUNG JABUNG TIMUR,-1.20569,103.79294
93,1507,15,KABUPATEN TANJUNG JABUNG BARAT,-0.81637,103.46271
94,1508,15,KABUPATEN TEBO,-1.4662,102.35888
95,1509,15,KABUPATEN BUNGO,-1.51616,102.11988
96,1571,15,KOTA JAMBI,-1.61146,103.61261
97,1572,15,KOTA SUNGAI PENUH,-2.06345,101.3944
98,1601,16,KABUPATEN OGAN KOMERING ULU,-4.11223,104.17791
99,1602,16,KABUPATEN OGAN KOMERING ILIR,-3.41139,104.82364
100,1603,16,KABUPATEN MUARA ENIM,-3.66474,103.77288
101,1604,16,KABUPATEN LAHAT,-3.78521,103.54079
102,1605,16,KABUPATEN MUSI RAWAS,-3.24521,103.03355
103,1606,16,KABUPATEN MUSI BANYUASIN,-2.88888,103.84034
104,1607,16,KABUPATEN BANYU ASIN,-2.88766,104.39386
105,1608,16,KABUPATEN OGAN KOMERING ULU SELATAN,-4.53473,104.06858
106,1609,16,KABUPATEN OGAN KOMERING ULU TIMUR,-4.31419,104.34543
107,1610,16,KABUPATEN OGAN ILIR,-3.24141,104.66583
108,1611,16,KABUPATEN EMPAT LAWANG,-3.59113,103.08192
109,1612,16,KABUPATEN PENUKAL ABAB LEMATANG ILIR,-3.30959,103.88453
110,1613,16,KABUPATEN MUSI RAWAS UTARA,-2.73513,102.90215
111,1671,16,KOTA PALEMBANG,-2.97622,104.77738
112,1672,16,KOTA PRABUMULIH,-3.42144,104.24406
113,1673,16,KOTA PAGAR ALAM,-4.04082,103.22557
114,1674,16,KOTA LUBUKLINGGAU,-3.29964,102.85806
115,1701,17,KABUPATEN BENGKULU SELATAN,-4.34188,103.04563
116,1702,17,KABUPATEN REJANG LEBONG,-3.46527,102.52544
117,1703,17,KABUPATEN BENGKULU UTARA,-3.43868,102.1947
118,1704,17,KABUPATEN KAUR,-4.75886,103.34933
119,1705,17,KABUPATEN SELUMA,-4.07749,102.55662
120,1706,17,KABUPATEN MUKOMUKO,-2.57427,101.13082
121,1707,17,KABUPATEN LEBONG,-3.15737,102.18304
122,1708,17,KABUPATEN KEPAHIANG,-3.65188,102.57711
123,1709,17,KABUPATEN BENGKULU TENGAH,-3.77276,102.39047
124,1771,17,KOTA BENGKULU,-3.79143,102.25788
125,1801,18,KABUPATEN LAMPUNG BARAT,-5.01884,104.06096
126,1802,18,KABUPATEN TANGGAMUS,-5.49223,104.62189
127,1803,18,KABUPATEN LAMPUNG SELATAN,-5.73466,105.59582
128,1804,18,KABUPATEN LAMPUNG TIMUR,-5.0684,105.54633
129,1805,18,KABUPATEN LAMPUNG TENGAH,-4.98283,105.21336
130,1806,18,KABUPATEN LAMPUNG UTARA,-4.82496,104.89532
131,1807,18,KABUPATEN WAY KANAN,-4.50596,104.51212
132,1808,18,KABUPATEN TULANGBAWANG,-4.48052,105.24169
133,1809,18,KABUPATEN PESAWARAN,-5.38307,105.09003
134,1810,18,KABUPATEN PRINGSEWU,-5.34407,105.00716
135,1811,18,KABUPATEN MESUJI,-3.87201,105.43494
136,1812,18,KABUPATEN TULANG BAWANG BARAT,-4.49926,105.12029
137,1813,18,KABUPATEN PESISIR BARAT,-5.19005,103.93374
138,1871,18,KOTA BANDAR LAMPUNG,-5.39542,105.26403
139,1872,18,KOTA METRO,-5.11834,105.30689
140,1901,19,KABUPATEN BANGKA,-1.87663,106.11354
141,1902,19,KABUPATEN BELITUNG,-2.74015,107.65323
142,1903,19,KABUPATEN BANGKA BARAT,-2.06457,105.16147
143,1904,19,KABUPATEN BANGKA TENGAH,-2.48624,106.41238
144,1905,19,KABUPATEN BANGKA SELATAN,-2.99909,106.46538
145,1906,19,KABUPATEN BELITUNG TIMUR,-2.87051,108.27865
146,1971,19,KOTA PANGKAL PINANG,-2.13212,106.11606
147,2101,21,KABUPATEN KARIMUN,1.03317,103.37606
148,2102,21,KABUPATEN BINTAN,1.08914,104.50337
149,2103,21,KABUPATEN NATUNA,3.94193,108.37965
150,2104,21,KABUPATEN LINGGA,-0.20982,104.60489
151,2105,21,KABUPATEN KEPULAUAN ANAMBAS,3.21495,106.24907
152,2171,21,KOTA BATAM,1.1293,104.05023
153,2172,21,KOTA TANJUNG PINANG,0.91815,104.46596
154,3101,31,KABUPATEN KEPULAUAN SERIBU,-5.74657,106.61325
155,3171,31,KOTA JAKARTA SELATAN,-6.24853,106.82941
156,3172,31,KOTA JAKARTA TIMUR,-6.16631,106.76343
157,3173,31,KOTA JAKARTA PUSAT,-6.18043,106.83372
158,3174,31,KOTA JAKARTA BARAT,-6.16637,106.76944
159,3175,31,KOTA JAKARTA UTARA,-6.14874,106.90261
160,3201,32,KABUPATEN BOGOR,-6.48723,106.84872
161,3202,32,KABUPATEN SUKABUMI,-7.06086,106.71864
162,3203,32,KABUPATEN CIANJUR,-6.81725,107.13073
163,3204,32,KABUPATEN BANDUNG,-7.02523,107.52454
164,3205,32,KABUPATEN GARUT,-7.22791,107.9087
165,3206,32,KABUPATEN TASIKMALAYA,-7.35015,108.12472
166,3207,32,KABUPATEN CIAMIS,-7.32975,108.32957
167,3208,32,KABUPATEN KUNINGAN,-6.98333,108.48333
168,3209,32,KABUPATEN CIREBON,-6.75906,108.48875
169,3210,32,KABUPATEN MAJALENGKA,-6.8531,108.22589
170,3211,32,KABUPATEN SUMEDANG,0.60959,110.03306
171,3212,32,KABUPATEN INDRAMAYU,-6.33632,108.3251
172,3213,32,KABUPATEN SUBANG,-6.56936,107.7524
173,3214,32,KABUPATEN PURWAKARTA,-6.53868,107.44994
174,3215,32,KABUPATEN KARAWANG,-6.32273,107.33758
175,3216,32,KABUPATEN BEKASI,-6.36722,107.17228
176,3217,32,KABUPATEN BANDUNG BARAT,-6.89371,107.4322
177,3218,32,KABUPATEN PANGANDARAN,-7.6151,108.4988
178,3271,32,KOTA BOGOR,-6.59748,106.80677
179,3272,32,KOTA SUKABUMI,-6.91776,106.93293
180,3273,32,KOTA BANDUNG,-6.91776,107.62529
181,3274,32,KOTA CIREBON,-6.73331,108.55472
182,3275,32,KOTA BEKASI,-6.23963,106.97715
183,3276,32,KOTA DEPOK,-6.40319,106.79135
184,3277,32,KOTA CIMAHI,-6.88024,107.5355
185,3278,32,KOTA TASIKMALAYA,-7.35152,108.21574
186,3279,32,KOTA BANJAR,-7.37129,108.53328
187,3301,33,KABUPATEN CILACAP,-7.69817,109.02425
188,3302,33,KABUPATEN BANYUMAS,-7.48321,109.14044
189,3303,33,KABUPATEN PURBALINGGA,-7.39075,109.3638
190,3304,33,KABUPATEN BANJARNEGARA,-7.40271,109.6814
191,3305,33,KABUPATEN KEBUMEN,-7.67868,109.6565
192,3306,33,KABUPATEN PURWOREJO,-7.70973,110.008
193,3307,33,KABUPATEN WONOSOBO,-7.36211,109.8994
194,3308,33,KABUPATEN MAGELANG,-7.55442,110.25446
195,3309,33,KABUPATEN BOYOLALI,-7.52382,110.5959
196,3310,33,KABUPATEN KLATEN,-7.71169,110.5955
197,3311,33,KABUPATEN SUKOHARJO,-7.68088,110.81953
198,3312,33,KABUPATEN WONOGIRI,-7.81778,110.9206
199,3313,33,KABUPATEN KARANGANYAR,-7.59611,110.95083
200,3314,33,KABUPATEN SRAGEN,-7.43023,111.0213
201,3315,33,KABUPATEN GROBOGAN,-7.02172,110.96259
202,3316,33,KABUPATEN BLORA,-6.96932,111.41667
203,3317,33,KABUPATEN REMBANG,-6.71124,111.3453
204,3318,33,KABUPATEN PATI,-6.75134,111.038
205,3319,33,KABUPATEN KUDUS,-6.80409,110.8382
206,3320,33,KABUPATEN JEPARA,-6.55961,110.6717
207,3321,33,KABUPATEN DEMAK,-6.88811,110.6393
208,3322,33,KABUPATEN SEMARANG,-7.13652,110.4086
209,3323,33,KABUPATEN TEMANGGUNG,-7.31667,110.1748
210,3324,33,KABUPATEN KENDAL,-6.91969,110.2056
211,3325,33,KABUPATEN BATANG,-6.906159,109.72984
212,3326,33,KABUPATEN PEKALONGAN,-7.02676,109.5805
213,3327,33,KABUPATEN PEMALANG,-6.88423,109.378
214,3328,33,KABUPATEN TEGAL,-6.98277,109.135513
215,3329,33,KABUPATEN BREBES,-6.88333,109.03947
216,3371,33,KOTA MAGELANG,-7.47884,110.21993
217,3372,33,KOTA SURAKARTA,-7.56667,110.81667
218,3373,33,KOTA SALATIGA,-7.30233,110.4729
219,3374,33,KOTA SEMARANG,-6.98439,110.41286
220,3375,33,KOTA PEKALONGAN,-6.88981,109.67141
221,3376,33,KOTA TEGAL,-6.8796,109.12685
222,3401,34,KABUPATEN KULON PROGO,-7.82668,110.16408
223,3402,34,KABUPATEN BANTUL,-7.88461,110.33411
224,3403,34,KABUPATEN GUNUNG KIDUL,-8.03051,110.61689
225,3404,34,KABUPATEN SLEMAN,-7.71616,110.3354
226,3471,34,KOTA YOGYAKARTA,-7.79722,110.3688
227,3501,35,KABUPATEN PACITAN,-8.20461,111.08769
228,3502,35,KABUPATEN PONOROGO,-7.86783,111.466
229,3503,35,KABUPATEN TRENGGALEK,-8.07705,111.71667
230,3504,35,KABUPATEN TULUNGAGUNG,-8.06667,111.96328
231,3505,35,KABUPATEN BLITAR,-8.11921,112.20187
232,3506,35,KABUPATEN KEDIRI,-7.77407,112.10822
233,3507,35,KABUPATEN MALANG,-8.13084,112.56496
234,3508,35,KABUPATEN LUMAJANG,-8.13702,113.2266
235,3509,35,KABUPATEN JEMBER,-8.17236,113.7003
236,3510,35,KABUPATEN BANYUWANGI,-8.21861,114.36694
237,3511,35,KABUPATEN BONDOWOSO,-7.9177,113.81348
238,3512,35,KABUPATEN SITUBONDO,-7.70253,113.95561
239,3513,35,KABUPATEN PROBOLINGGO,-7.76208,113.41848
240,3514,35,KABUPATEN PASURUAN,-7.60411,112.77633
241,3515,35,KABUPATEN SIDOARJO,-7.45303,112.71734
242,3516,35,KABUPATEN MOJOKERTO,-7.50421,112.5432
243,3517,35,KABUPATEN JOMBANG,-7.54684,112.22648
244,3518,35,KABUPATEN NGANJUK,-7.60293,111.90181
245,3519,35,KABUPATEN MADIUN,-7.62775,111.50548
246,3520,35,KABUPATEN MAGETAN,-7.64934,111.33816
247,3521,35,KABUPATEN NGAWI,-7.38993,111.46193
248,3522,35,KABUPATEN BOJONEGORO,-7.15353,111.88523
249,3523,35,KABUPATEN TUBAN,-6.89481,112.04184
250,3524,35,KABUPATEN LAMONGAN,-7.11826,112.41307
251,3525,35,KABUPATEN GRESIK,-7.15665,112.6555
252,3526,35,KABUPATEN BANGKALAN,-7.03069,112.74501
253,3527,35,KABUPATEN SAMPANG,-7.19119,113.24707
254,3528,35,KABUPATEN PAMEKASAN,-7.16667,113.46667
255,3529,35,KABUPATEN SUMENEP,-6.9254,113.90606
256,3571,35,KOTA KEDIRI,-7.84829,112.01875
257,3572,35,KOTA BLITAR,-8.0955,112.15942
258,3573,35,KOTA MALANG,-7.96674,112.63178
259,3574,35,KOTA PROBOLINGGO,-7.77707,113.19804
260,3575,35,KOTA PASURUAN,-7.64752,112.89839
261,3576,35,KOTA MOJOKERTO,-7.47108,112.43992
262,3577,35,KOTA MADIUN,-7.63023,111.52805
263,3578,35,KOTA SURABAYA,-7.28917,112.7344
264,3579,35,KOTA BATU,-7.8671,112.5239
265,3601,36,KABUPATEN PANDEGLANG,-6.31483,106.1039
266,3602,36,KABUPATEN LEBAK,-6.5644,106.25221
267,3603,36,KABUPATEN TANGERANG,-6.16727,106.53228
268,3604,36,KABUPATEN SERANG,-6.04308,106.11578
269,3671,36,KOTA TANGERANG,-6.17634,106.63012
270,3672,36,KOTA CILEGON,-6.01698,106.04051
271,3673,36,KOTA SERANG,-6.11731,106.15438
272,3674,36,KOTA TANGERANG SELATAN,-6.28621,106.71105
273,5101,51,KABUPATEN JEMBRANA,-8.36185,114.6418
274,5102,51,KABUPATEN TABANAN,-8.54452,115.12418
275,5103,51,KABUPATEN BADUNG,-8.58193,115.17706
276,5104,51,KABUPATEN GIANYAR,-8.53724,115.32932
277,5105,51,KABUPATEN KLUNGKUNG,-8.53892,115.40451
278,5106,51,KABUPATEN BANGLI,-8.4543,115.3549
279,5107,51,KABUPATEN KARANG ASEM,-6.39961,108.0503
280,5108,51,KABUPATEN BULELENG,-8.11383,115.127
281,5171,51,KOTA DENPASAR,-8.65629,115.2221
282,5201,52,KABUPATEN LOMBOK BARAT,-8.64646,116.11231
283,5202,52,KABUPATEN LOMBOK TENGAH,-8.69462,116.27771
284,5203,52,KABUPATEN LOMBOK TIMUR,-8.51345,116.56099
285,5204,52,KABUPATEN SUMBAWA,-8.65293,117.36165
286,5205,52,KABUPATEN DOMPU,-8.49663,118.47472
287,5206,52,KABUPATEN BIMA,-8.45506,118.53643
288,5207,52,KABUPATEN SUMBAWA BARAT,-8.92929,116.89103
289,5208,52,KABUPATEN LOMBOK UTARA,-8.37391,116.27771
290,5271,52,KOTA MATARAM,-8.58333,116.11667
291,5272,52,KOTA BIMA,-8.46347,118.74303
292,5301,53,KABUPATEN SUMBA BARAT,-9.65483,119.39471
293,5302,53,KABUPATEN SUMBA TIMUR,-9.98021,120.34355
294,5303,53,KABUPATEN KUPANG,-10.07183,123.86499
295,5304,53,KABUPATEN TIMOR TENGAH SELATAN,-9.77628,124.41982
296,5305,53,KABUPATEN TIMOR TENGAH UTARA,-9.45226,124.59713
297,5306,53,KABUPATEN BELU,-9.41258,124.95066
298,5307,53,KABUPATEN ALOR,-8.2754,124.72988
299,5308,53,KABUPATEN LEMBATA,-8.47191,123.48319
300,5309,53,KABUPATEN FLORES TIMUR,-8.31309,122.9663
301,5310,53,KABUPATEN SIKKA,-8.67662,122.12918
302,5311,53,KABUPATEN ENDE,-8.85405,121.6542
303,5312,53,KABUPATEN NGADA,-8.74304,120.98763
304,5313,53,KABUPATEN MANGGARAI,-8.6797,120.38967
305,5314,53,KABUPATEN ROTE NDAO,-10.73864,123.1239
306,5315,53,KABUPATEN MANGGARAI BARAT,-8.66881,120.06652
307,5316,53,KABUPATEN SUMBA TENGAH,-9.48792,119.69627
308,5317,53,KABUPATEN SUMBA BARAT DAYA,-9.53914,119.13906
309,5318,53,KABUPATEN NAGEKEO,-8.67535,121.30841
310,5319,53,KABUPATEN MANGGARAI TIMUR,-8.62067,120.61999
311,5320,53,KABUPATEN SABU RAIJUA,-10.55411,121.83349
312,5321,53,KABUPATEN MALAKA,-9.5309,124.9066
313,5371,53,KOTA KUPANG,-10.17414,123.61184
314,6101,61,KABUPATEN SAMBAS,1.36133,109.30036
315,6102,61,KABUPATEN BENGKAYANG,0.82097,109.4777
316,6103,61,KABUPATEN LANDAK,0.42373,109.75917
317,6104,61,KABUPATEN MEMPAWAH,0.3897,109.1404
318,6105,61,KABUPATEN SANGGAU,0.11928,110.5973
319,6106,61,KABUPATEN KETAPANG,-1.8591,109.9719
320,6107,61,KABUPATEN SINTANG,0.08024,111.4955
321,6108,61,KABUPATEN KAPUAS HULU,0.85192,112.93131
322,6109,61,KABUPATEN SEKADAU,0.01564,110.8886
323,6110,61,KABUPATEN MELAWI,-0.70007,111.66607
324,6111,61,KABUPATEN KAYONG UTARA,-0.92259,110.04497
325,6112,61,KABUPATEN KUBU RAYA,-0.35339,109.47351
326,6171,61,KOTA PONTIANAK,-0.02252,109.33031
327,6172,61,KOTA SINGKAWANG,0.9088,108.9846
328,6201,62,KABUPATEN KOTAWARINGIN BARAT,-2.6767,111.62622
329,6202,62,KABUPATEN KOTAWARINGIN TIMUR,-2.53939,112.95932
330,6203,62,KABUPATEN KAPUAS,-2.87169,114.38179
331,6204,62,KABUPATEN BARITO SELATAN,-1.87594,114.80927
332,6205,62,KABUPATEN BARITO UTARA,-0.95871,115.09405
333,6206,62,KABUPATEN SUKAMARA,-2.62675,111.23681
334,6207,62,KABUPATEN LAMANDAU,-1.92692,111.18912
335,6208,62,KABUPATEN SERUYAN,-3.01235,112.42915
336,6209,62,KABUPATEN KATINGAN,-1.87189,113.41167
337,6210,62,KABUPATEN PULANG PISAU,-2.68496,113.95365
338,6211,62,KABUPATEN GUNUNG MAS,-6.70528,106.99139
339,6212,62,KABUPATEN BARITO TIMUR,-2.0124,115.18892
340,6213,62,KABUPATEN MURUNG RAYA,-0.13622,114.33414
341,6271,62,KOTA PALANGKA RAYA,-2.21605,113.91059
342,6301,63,KABUPATEN TANAH LAUT,-3.7694,114.80927
343,6302,63,KABUPATEN KOTA BARU,-3.65099,116.18746
344,6303,63,KABUPATEN BANJAR,-3.41101,114.84438
345,6304,63,KABUPATEN BARITO KUALA,-3.07147,114.66679
346,6305,63,KABUPATEN TAPIN,-2.91607,115.0466
347,6306,63,KABUPATEN HULU SUNGAI SELATAN,-2.76627,115.23634
348,6307,63,KABUPATEN HULU SUNGAI TENGAH,-2.61532,115.52074
349,6308,63,KABUPATEN HULU SUNGAI UTARA,-2.44212,115.18892
350,6309,63,KABUPATEN TABALONG,-2.16405,115.38353
351,6310,63,KABUPATEN TANAH BUMBU,-3.45122,115.94716
352,6311,63,KABUPATEN BALANGAN,-2.32604,115.61547
353,6371,63,KOTA BANJARMASIN,-3.3285,114.5892
354,6372,63,KOTA BANJAR BARU,-3.43978,114.82562
355,6401,64,KABUPATEN PASER,-1.71753,115.9468
356,6402,64,KABUPATEN KUTAI BARAT,0.13539,115.09405
357,6403,64,KABUPATEN KUTAI KARTANEGARA,-0.13367,116.60817
358,6404,64,KABUPATEN KUTAI TIMUR,0.94338,116.98524
359,6405,64,KABUPATEN BERAU,2.04509,117.36165
360,6409,64,KABUPATEN PENAJAM PASER UTARA,-1.29171,116.5138
361,6411,64,KABUPATEN MAHAKAM HULU,0.51412,115.27025
362,6471,64,KOTA BALIKPAPAN,-1.26354,116.82788
363,6472,64,KOTA SAMARINDA,-0.50218,117.1538
364,6474,64,KOTA BONTANG,0.11993,117.47938
365,6501,65,KABUPATEN MALINAU,3.58422,116.6478
366,6502,65,KABUPATEN BULUNGAN,2.90425,116.98524
367,6503,65,KABUPATEN TANA TIDUNG,3.55187,117.07941
368,6504,65,KABUPATEN NUNUKAN,4.06092,117.66695
369,6571,65,KOTA TARAKAN,3.32602,117.5777
370,7101,71,KABUPATEN BOLAANG MONGONDOW,0.6871,124.06414
371,7102,71,KABUPATEN MINAHASA,1.30195,124.91329
372,7103,71,KABUPATEN KEPULAUAN SANGIHE,3.53032,125.5439
373,7104,71,KABUPATEN KEPULAUAN TALAUD,4.092,126.768
374,7105,71,KABUPATEN MINAHASA SELATAN,1.09468,124.46418
375,7106,71,KABUPATEN MINAHASA UTARA,1.5328,124.99475
376,7107,71,KABUPATEN BOLAANG MONGONDOW UTARA,0.81869,123.52801
377,7108,71,KABUPATEN SIAU TAGULANDANG BIARO,2.34596,125.41244
378,7109,71,KABUPATEN MINAHASA TENGGARA,1.02786,124.72988
379,7110,71,KABUPATEN BOLAANG MONGONDOW SELATAN,0.4053,123.8411
380,7111,71,KABUPATEN BOLAANG MONGONDOW TIMUR,0.7153,124.4642
381,7171,71,KOTA MANADO,1.4917,124.84284
382,7172,71,KOTA BITUNG,1.45535,125.2047
383,7173,71,KOTA TOMOHON,1.32341,124.83845
384,7174,71,KOTA KOTAMOBAGU,0.73333,124.31667
385,7201,72,KABUPATEN BANGGAI KEPULAUAN,-1.36872,123.16867
386,7202,72,KABUPATEN BANGGAI,-0.93818,122.79184
387,7203,72,KABUPATEN MOROWALI,-2.30031,121.93497
388,7204,72,KABUPATEN POSO,-1.39192,120.767
389,7205,72,KABUPATEN DONGGALA,-0.42332,119.83523
390,7206,72,KABUPATEN TOLI-TOLI,0.87682,120.75798
391,7207,72,KABUPATEN BUOL,0.96955,121.35416
392,7208,72,KABUPATEN PARIGI MOUTONG,0.58176,120.80395
393,7209,72,KABUPATEN TOJO UNA-UNA,-0.86865,121.58473
394,7210,72,KABUPATEN SIGI,-1.38341,120.06652
395,7211,72,KABUPATEN BANGGAI LAUT,-1.6735,123.5504
396,7212,72,KABUPATEN MOROWALI UTARA,-1.6312,121.3542
397,7271,72,KOTA PALU,-0.89858,119.8506
398,7301,73,KABUPATEN KEPULAUAN SELAYAR,-6.287,120.5049
399,7302,73,KABUPATEN BULUKUMBA,-5.43294,120.20511
400,7303,73,KABUPATEN BANTAENG,-5.51693,120.0203
401,7304,73,KABUPATEN JENEPONTO,-5.55458,119.67309
402,7305,73,KABUPATEN TAKALAR,-5.41625,119.48757
403,7306,73,KABUPATEN GOWA,-5.31029,119.7426
404,7307,73,KABUPATEN SINJAI,-5.2172,120.11274
405,7308,73,KABUPATEN MAROS,-4.94695,119.5789
406,7309,73,KABUPATEN PANGKAJENE DAN KEPULAUAN,-4.80504,119.55717
407,7310,73,KABUPATEN BARRU,-4.41727,119.67309
408,7311,73,KABUPATEN BONE,-2.08333,120.21667
409,7312,73,KABUPATEN SOPPENG,-4.35185,119.92779
410,7313,73,KABUPATEN WAJO,-4.02223,120.06652
411,7314,73,KABUPATEN SIDENRENG RAPPANG,-3.7739,120.0203
412,7315,73,KABUPATEN PINRANG,-3.79307,119.6408
413,7316,73,KABUPATEN ENREKANG,-3.56313,119.7612
414,7317,73,KABUPATEN LUWU,-3.30522,120.25127
415,7318,73,KABUPATEN TANA TORAJA,-3.0753,119.7426
416,7322,73,KABUPATEN LUWU UTARA,-2.26904,119.97405
417,7325,73,KABUPATEN LUWU TIMUR,-2.58255,121.17104
418,7326,73,KABUPATEN TORAJA UTARA,-2.86219,119.83523
419,7371,73,KOTA MAKASSAR,-5.13333,119.41667
420,7372,73,KOTA PAREPARE,-4.0096,119.6291
421,7373,73,KOTA PALOPO,-3.00212,120.19809
422,7401,74,KABUPATEN BUTON,-5.30964,122.98883
423,7402,74,KABUPATEN MUNA,-4.83225,122.72062
424,7403,74,KABUPATEN KONAWE,-3.85473,122.04333
425,7404,74,KABUPATEN KOLAKA,-4.04967,121.5938
426,7405,74,KABUPATEN KONAWE SELATAN,-4.20279,122.44672
427,7406,74,KABUPATEN BOMBANA,-4.65435,121.9018
428,7407,74,KABUPATEN WAKATOBI,-5.32644,123.59519
429,7408,74,KABUPATEN KOLAKA UTARA,-3.13472,121.17104
430,7409,74,KABUPATEN BUTON UTARA,-4.70234,123.03388
431,7410,74,KABUPATEN KONAWE UTARA,-3.51208,122.11101
432,7411,74,KABUPATEN KOLAKA TIMUR,-4.2279,121.9018
433,7412,74,KABUPATEN KONAWE KEPULAUAN,-4.1361,123.1239
434,7413,74,KABUPATEN MUNA BARAT,-4.78957,122.49816
435,7414,74,KABUPATEN BUTON TENGAH,-5.3891,122.5599
436,7415,74,KABUPATEN BUTON SELATAN,-5.60681,122.6179
437,7471,74,KOTA KENDARI,-3.9722,122.5149
438,7472,74,KOTA BAUBAU,-5.50588,122.60136
439,7501,75,KABUPATEN BOALEMO,0.70134,122.26539
440,7502,75,KABUPATEN GORONTALO,0.66354,122.96392
441,7503,75,KABUPATEN POHUWATO,0.70553,121.71955
442,7504,75,KABUPATEN BONE BOLANGO,0.56579,123.34861
443,7505,75,KABUPATEN GORONTALO UTARA,0.92526,122.49201
444,7571,75,KOTA GORONTALO,0.53333,123.06667
445,7601,76,KABUPATEN MAJENE,-3.02973,118.90628
446,7602,76,KABUPATEN POLEWALI MANDAR,-3.34193,119.13906
447,7603,76,KABUPATEN MAMASA,-2.96013,119.3682
448,7604,76,KABUPATEN MAMUJU,-2.72934,118.92957
449,7605,76,KABUPATEN MAMUJU UTARA,-1.52645,119.51077
450,7606,76,KABUPATEN MAMUJU TENGAH,-1.9354,119.5108
451,8101,81,KABUPATEN MALUKU TENGGARA BARAT,-7.98349,131.3023
452,8102,81,KABUPATEN MALUKU TENGGARA,-5.6631,132.73781
453,8103,81,KABUPATEN MALUKU TENGAH,-3.01665,129.48644
454,8104,81,KABUPATEN BURU,-3.23143,127.09036
455,8105,81,KABUPATEN KEPULAUAN ARU,-6.19465,134.55019
456,8106,81,KABUPATEN SERAM BAGIAN BARAT,-3.12716,128.40084
457,8107,81,KABUPATEN SERAM BAGIAN TIMUR,-3.41508,130.39049
458,8108,81,KABUPATEN MALUKU BARAT DAYA,-7.78516,126.34981
459,8109,81,KABUPATEN BURU SELATAN,-3.83757,126.734305
460,8171,81,KOTA AMBON,-3.65607,128.16642
461,8172,81,KOTA TUAL,-5.64085,132.74751
462,8201,82,KABUPATEN HALMAHERA BARAT,1.07478,127.47239
463,8202,82,KABUPATEN HALMAHERA TENGAH,0.3385,127.87139
464,8203,82,KABUPATEN KEPULAUAN SULA,-1.86667,125.36667
465,8204,82,KABUPATEN HALMAHERA SELATAN,-0.62584,127.4831
466,8205,82,KABUPATEN HALMAHERA UTARA,1.7251,128.00373
467,8206,82,KABUPATEN HALMAHERA TIMUR,0.69114,128.28043
468,8207,82,KABUPATEN PULAU MOROTAI,2.3657,128.4008
469,8208,82,KABUPATEN PULAU TALIABU,-1.8268,124.7741
470,8271,82,KOTA TERNATE,0.78333,127.36667
471,8272,82,KOTA TIDORE KEPULAUAN,0.68333,127.44725
472,9101,91,KABUPATEN FAKFAK,-2.88524,132.26583
473,9102,91,KABUPATEN KAIMANA,-3.66093,133.77451
474,9103,91,KABUPATEN TELUK WONDAMA,-2.85517,134.32366
475,9104,91,KABUPATEN TELUK BINTUNI,-1.90568,133.32947
476,9105,91,KABUPATEN MANOKWARI,-0.86145,134.06204
477,9106,91,KABUPATEN SORONG SELATAN,-1.44375,132.0187
478,9107,91,KABUPATEN SORONG,-0.956132,131.33747
479,9108,91,KABUPATEN RAJA AMPAT,-1.09152,130.87786
480,9109,91,KABUPATEN TAMBRAUW,-0.78186,132.39384
481,9110,91,KABUPATEN MAYBRAT,-1.2971,132.3151
482,9111,91,KABUPATEN MANOKWARI SELATAN,-1.51673,134.17932
483,9112,91,KABUPATEN PEGUNUNGAN ARFAK,-1.1555,133.7142
484,9171,91,KOTA SORONG,-0.87883,131.2589
485,9401,94,KABUPATEN MERAUKE,-8.49604,140.39455
486,9402,94,KABUPATEN JAYAWIJAYA,-4.00045,138.79951
487,9403,94,KABUPATEN JAYAPURA,-2.54958,140.47759
488,9404,94,KABUPATEN NABIRE,-3.50955,135.7521
489,9408,94,KABUPATEN KEPULAUAN YAPEN,-1.74694,136.1709
490,9409,94,KABUPATEN BIAK NUMFOR,-1.0381,135.98008
491,9410,94,KABUPATEN PANIAI,-3.78764,136.36247
492,9411,94,KABUPATEN PUNCAK JAYA,-3.72805,137.98589
493,9412,94,KABUPATEN MIMIKA,-4.45532,137.13621
494,9413,94,KABUPATEN BOVEN DIGOEL,-6.09967,140.34818
495,9414,94,KABUPATEN MAPPI,-7.10223,139.39639
496,9415,94,KABUPATEN ASMAT,-5.0574,138.39882
497,9416,94,KABUPATEN YAHUKIMO,-4.88689,139.52088
498,9417,94,KABUPATEN PEGUNUNGAN BINTANG,-4.55899,140.51356
499,9418,94,KABUPATEN TOLIKARA,-3.48113,138.47873
500,9419,94,KABUPATEN SARMI,-1.86873,138.74361
501,9420,94,KABUPATEN KEEROM,-3.34495,140.76245
502,9426,94,KABUPATEN WAROPEN,-2.84357,136.67053
503,9427,94,KABUPATEN SUPIORI,-0.72951,135.63851
504,9428,94,KABUPATEN MAMBERAMO RAYA,-2.53313,137.76376
505,9429,94,KABUPATEN NDUGA,-4.40695,138.23935
506,9430,94,KABUPATEN LANNY JAYA,-3.97103,138.31903
507,9431,94,KABUPATEN MAMBERAMO TENGAH,-3.67108,139.0626
508,9432,94,KABUPATEN YALIMO,-3.78528,139.4466
509,9433,94,KABUPATEN PUNCAK,-3.97143,137.64241
510,9434,94,KABUPATEN DOGIYAI,-4.01939,135.96104
511,9435,94,KABUPATEN INTAN JAYA,-3.50764,136.74785
512,9436,94,KABUPATEN DEIYAI,-4.09749,136.43931
513,9471,94,KOTA JAYAPURA,-2.59048,140.6754
